Nor_Vel,East_Vel,Down_Vel,LAT,Long,Nx_Accel,Ny_Accel,Nz_Accel,Nor_Accel,Mag_Head,Roll,Pitch,True_Head,Gnd_Track,Roll_Rate,Pitch_Rate,Yaw_Rate,TAS,CAS,Gnd_Speed,MACH,True_AOA,Indi_AOA,Corr_Alt,SYS_Alt,BARO_Alt,RALT_Alt,Wind_Mag,Wind_Dir,MS_Mode,AC_Mode,FOM,Fuel,UTC
-282,622,-14,-0.172437,-0.281149,0.40005,1.209675,18.849976,1.916476,126,0.565796,9.711914,111.813354,128,-0.175781,2.021484,-0.065918,544,367,683,0.90625,4,1,27663,27860,27678,,144,318,2,12,1,3488,54810676
-282,622,-15,-0.172438,-0.281147,0.485775,1.019175,18.745201,1.902553,126,0.527344,9.920654,111.802368,128,-0.966797,2.06543,-0.109863,544,367,683,0.90625,4,1,27670,27868,27685,,144,318,2,12,1,3487,54810768
-282,622,-17,-0.172439,-0.281145,0.466725,1.285875,18.811874,1.912836,126,0.549316,10.134888,111.796875,128,0.593262,2.175293,-0.109863,544,367,683,0.90625,5,1,27685,27876,27698,,144,318,2,12,1,3487,54810876
-282,621,-17,-0.17244,-0.281143,0.523875,1.2573,18.964275,1.927152,126,0.587769,10.360107,111.785889,128,0.219727,2.263184,-0.087891,544,367,682,0.90625,5,1,27688,27884,27700,,144,318,2,12,1,3487,54810968
-282,621,-19,-0.17244,-0.281142,0.47625,1.419225,19.116674,1.944108,126,0.681152,10.596313,111.785889,128,0.98877,2.351074,-0.043945,544,367,682,0.90625,5,1,27698,27896,27713,,144,318,2,12,1,3488,54811076
-282,621,-20,-0.172441,-0.28114,0.55245,1.495425,19.2024,1.953613,126,0.780029,10.838013,111.780396,128,0.878906,2.39502,-0.087891,543,366,682,0.90625,5,1,27703,27904,27718,,144,318,2,12,1,3488,54811168
-281,621,-22,-0.172442,-0.281138,0.4191,1.762125,19.611975,1.997851,126,0.840454,11.085205,111.774902,128,1.40625,2.438965,-0.087891,543,366,681,0.90625,5,1,27723,27916,27735,,144,318,2,12,1,3488,54811276
-281,620,-22,-0.172442,-0.281136,0.447675,1.7907,19.650076,2.001489,126,0.950317,11.326904,111.763916,128,1.032715,2.351074,-0.153809,543,366,681,0.904297,5,1,27728,27924,27740,,144,318,2,12,1,3488,54811368
-281,620,-25,-0.172443,-0.281134,0.466725,1.857375,19.726274,2.009622,125,1.049194,11.56311,111.75293,128,1.010742,2.39502,-0.153809,542,365,681,0.904297,5,1,27740,27936,27753,,144,318,2,12,1,3488,54811476
-281,619,-25,-0.172444,-0.281132,0.561975,1.92405,19.954876,2.033414,125,1.170044,11.799316,111.73645,128,0.922852,2.329102,-0.197754,542,365,681,0.904297,5,1,27743,27948,27758,,144,318,2,12,1,3488,54811572
-281,619,-28,-0.172445,-0.28113,0.47625,2.19075,19.98345,2.040296,125,1.224976,12.035522,111.719971,128,0.966797,2.307129,-0.197754,542,365,680,0.902344,5,1,27758,27960,27770,,144,318,2,12,1,3488,54811676
-281,619,-28,-0.172445,-0.281129,0.638175,2.11455,19.897726,2.030243,125,1.373291,12.266235,111.708984,128,0.944824,2.197266,-0.153809,542,364,680,0.902344,5,1,27763,27972,27775,,144,318,2,12,1,3488,54811768
-281,618,-31,-0.172446,-0.281127,0.4953,2.22885,19.783424,2.019617,125,1.417236,12.485962,111.697998,128,0.461426,2.15332,-0.153809,541,364,679,0.900391,5,1,27785,27984,27798,,144,318,2,12,1,3488,54811876
-281,618,-32,-0.172447,-0.281125,0.676275,2.26695,19.888201,2.031073,125,1.494141,12.711182,111.692505,128,0.241699,2.175293,-0.087891,541,364,679,0.900391,5,1,27790,27996,27803,,145,318,2,12,1,3488,54811968
-281,617,-34,-0.172448,-0.281123,0.55245,2.276475,19.5453,1.99563,125,1.516113,12.930908,111.692505,128,0.043945,2.197266,-0.087891,541,363,678,0.900391,5,1,27808,28008,27820,,145,318,2,12,1,3489,54812080
-280,617,-35,-0.172448,-0.281121,0.51435,2.4384,19.697701,2.013311,125,1.604004,13.150635,111.692505,128,0.922852,2.263184,-0.065918,541,364,678,0.900391,5,2,27818,28020,27830,,145,318,2,12,1,3489,54812168
-280,616,-37,-0.172449,-0.281119,0.619125,2.41935,19.67865,2.010788,125,1.680908,13.364868,111.687012,128,0.32959,2.087402,-0.087891,541,363,678,0.900391,5,2,27830,28036,27843,,145,318,2,12,1,3489,54812276
-280,616,-38,-0.17245,-0.281118,0.51435,2.543175,19.688175,2.013117,125,1.790771,13.579102,111.687012,128,1.296387,2.131348,-0.065918,541,363,677,0.900391,5,1,27838,28048,27850,,145,318,2,12,1,3489,54812372
-280,615,-40,-0.17245,-0.281116,0.638175,2.638425,19.5072,1.997312,125,1.933594,13.798828,111.687012,128,1.230469,2.109375,0.0,540,362,676,0.900391,5,1,27853,28064,27865,,145,318,2,12,1,3489,54812476
-280,615,-41,-0.172451,-0.281114,0.542925,2.667,19.459576,1.991882,125,2.114868,14.007568,111.697998,128,2.109375,2.131348,0.043945,540,362,676,0.900391,5,1,27860,28076,27873,,145,319,2,12,1,3489,54812572
-280,614,-44,-0.172452,-0.281112,0.5334,2.809875,19.383375,1.986978,125,2.235718,14.216309,111.708984,128,1.07666,2.109375,0.065918,540,362,675,0.898438,5,2,27885,28092,27898,,145,319,2,12,1,3489,54812676
-280,614,-44,-0.172453,-0.28111,0.5334,2.771775,19.192875,1.966402,125,2.362061,14.425049,111.719971,128,1.713867,2.087402,0.043945,540,362,675,0.898438,5,2,27893,28108,27905,,145,319,2,12,1,3489,54812768
-280,613,-47,-0.172453,-0.281108,0.5715,2.886075,19.345276,1.983708,125,2.510376,14.628296,111.730957,128,1.054688,2.06543,0.021973,539,361,674,0.896484,5,1,27913,28124,27925,,145,319,2,12,1,3489,54812876
-280,613,-48,-0.172454,-0.281107,0.6858,2.68605,18.926176,1.937053,125,2.614746,14.831543,111.747437,128,1.032715,2.175293,0.043945,539,361,674,0.896484,5,1,27920,28140,27933,,145,319,2,12,1,3489,54812968
-279,612,-50,-0.172455,-0.281105,0.47625,2.91465,19.116674,1.959805,125,2.58728,15.040283,111.75293,128,-1.07666,2.109375,0.0,539,360,673,0.896484,5,1,27945,28156,27958,,145,319,2,12,1,3489,54813076
-279,612,-51,-0.172455,-0.281103,0.43815,3.06705,19.078575,1.959155,126,2.427979,15.232544,111.763916,128,-1.516113,1.955566,0.0,538,360,673,0.896484,5,2,27953,28172,27968,,145,319,2,12,1,3489,54813168
-279,611,-53,-0.172456,-0.281101,0.6477,3.019425,18.773775,1.928571,126,2.49939,15.397339,111.769409,128,1.164551,1.472168,0.043945,538,359,672,0.894531,5,1,27978,28188,27990,,145,319,2,12,1,3489,54813276
-279,610,-54,-0.172457,-0.281099,0.295275,3.1242,18.42135,1.894276,126,2.850952,15.501709,111.785889,128,5.559082,0.900879,0.131836,538,359,671,0.894531,5,2,27988,28204,28000,,145,319,2,12,1,3488,54813368
-279,610,-57,-0.172458,-0.281097,-0.01905,3.114675,18.249901,1.875447,126,3.812256,15.556641,111.813354,128,12.458496,0.395508,0.285645,537,358,671,0.892578,5,1,28005,28224,28018,,145,319,2,12,1,3488,54813476
-279,609,-58,-0.172458,-0.281096,-0.5334,3.0861,17.345026,1.784534,126,5.300903,15.57312,111.8573,128,17.358398,0.021973,0.505371,537,359,670,0.892578,5,1,28010,28240,28023,,145,319,2,12,1,3487,54813572
-279,608,-60,-0.172459,-0.281094,-0.81915,3.1623,16.754475,1.728775,126,7.514648,15.562134,111.928711,128,24.213867,0.0,0.769043,537,358,670,0.892578,4,0,28038,28256,28053,,146,319,2,12,1,3487,54813676
-280,608,-61,-0.17246,-0.281092,-1.590675,3.171825,15.86865,1.645314,126,10.15686,15.551147,112.022095,128,27.883301,0.175781,1.032715,537,358,669,0.892578,4,0,28048,28276,28060,,146,319,2,12,1,3487,54813768
-280,607,-64,-0.17246,-0.28109,-2.028825,3.076575,14.80185,1.541681,126,13.282471,15.562134,112.148438,128,32.211914,0.571289,1.296387,536,358,669,0.892578,4,0,28075,28292,28088,,146,319,2,12,1,3486,54813876
-280,607,-65,-0.172461,-0.281088,-2.7432,3.171825,14.097,1.485385,126,16.583862,15.600586,112.313232,129,33.00293,0.900879,1.516113,536,357,669,0.892578,4,-1,28083,28312,28098,,146,320,2,12,1,3486,54813968
-281,606,-67,-0.172462,-0.281087,-3.3147,3.324225,13.573125,1.449794,126,20.10498,15.650024,112.516479,129,35.332031,1.142578,1.801758,536,357,668,0.890625,3,-1,28110,28328,28123,,146,320,2,12,1,3486,54814080
-282,605,-68,-0.172463,-0.281085,-4.048125,3.514725,13.154025,1.433235,126,23.659058,15.688477,112.747192,129,34.870605,1.252441,2.087402,536,357,668,0.892578,3,-1,28120,28348,28133,,146,320,2,12,1,3486,54814168
-283,605,-71,-0.172463,-0.281083,-4.657725,3.609975,12.639675,1.40558,127,27.268066,15.710449,113.021851,129,35.881348,1.340332,2.373047,536,356,668,0.890625,3,-1,28148,28368,28160,,146,320,2,12,1,3486,54814276
-284,604,-72,-0.172464,-0.281081,-5.248275,3.762375,12.087225,1.380728,127,30.910034,15.704956,113.318481,129,35.244141,1.340332,2.636719,536,356,668,0.890625,3,-1,28160,28384,28175,,146,320,2,12,1,3485,54814368
-285,603,-74,-0.172465,-0.281079,-5.838825,3.79095,11.249025,1.332079,127,34.573975,15.671997,113.637085,129,36.035156,1.340332,2.900391,535,356,667,0.890625,3,-1,28180,28404,28193,,146,320,2,12,1,3485,54814476
-286,603,-75,-0.172466,-0.281078,-6.41985,3.90525,10.772775,1.32158,128,38.259888,15.595093,113.966675,129,35.771484,1.252441,3.076172,535,355,667,0.888672,3,-1,28190,28424,28203,,146,320,2,12,1,3485,54814572
-287,602,-78,-0.172466,-0.281076,-6.924675,3.933825,10.00125,1.285846,128,41.96228,15.479736,114.301758,129,36.430664,1.120605,3.317871,535,355,667,0.888672,3,-1,28218,28440,28230,,146,320,2,12,1,3485,54814676
-289,601,-79,-0.172467,-0.281074,-7.25805,3.895725,9.286875,1.247011,128,45.708618,15.314941,114.631348,129,36.430664,0.922852,3.515625,535,355,667,0.888672,3,-1,28228,28460,28240,,146,320,2,12,1,3485,54814768
-290,600,-81,-0.172468,-0.281072,-7.591425,3.79095,8.2677,1.189772,129,49.460449,15.100708,114.949951,130,37.001953,0.769043,3.735352,534,354,667,0.888672,3,-2,28255,28480,28268,,146,320,2,12,1,3486,54814876
-292,600,-82,-0.172469,-0.28107,-7.743825,3.75285,7.4676,1.144204,129,53.283691,14.842529,115.252075,130,37.63916,0.65918,3.911133,534,354,667,0.888672,3,-2,28268,28500,28280,,146,320,2,12,1,3487,54814968
-293,599,-84,-0.172469,-0.281069,-7.800975,3.476625,6.353175,1.067673,129,57.134399,14.551392,115.548706,130,38.122559,0.65918,4.108887,534,354,667,0.888672,3,-2,28295,28516,28308,,146,320,2,12,1,3488,54815080
-295,598,-85,-0.17247,-0.281067,-8.067675,3.48615,5.553075,1.043856,130,61.089478,14.232788,115.828857,130,39.331055,0.74707,4.21875,534,354,667,0.888672,2,-2,28305,28536,28318,,146,320,2,12,1,3488,54815168
-296,598,-88,-0.172471,-0.281065,-8.086725,3.190875,4.676775,0.988514,130,65.143433,13.886719,116.103516,130,40.385742,0.878906,4.328613,534,354,667,0.886719,2,-2,28333,28556,28345,,146,320,2,12,1,3489,54815276
-298,597,-88,-0.172472,-0.281063,-8.02005,2.95275,3.838575,0.936512,130,69.318237,13.52417,116.367188,130,41.52832,1.010742,4.394531,534,353,667,0.886719,2,-3,28343,28572,28355,,146,320,2,12,1,3489,54815368
-299,596,-91,-0.172472,-0.281061,-8.13435,2.752725,3.0861,0.909971,130,73.575439,13.139648,116.61438,130,42.363281,1.07666,4.438477,534,353,667,0.886719,2,-3,28363,28592,28378,,146,320,2,12,1,3490,54815476
-301,596,-91,-0.172473,-0.28106,-8.220075,2.695575,2.295525,0.893505,131,77.926025,12.733154,116.834106,130,43.483887,1.07666,4.438477,533,353,667,0.886719,2,-3,28370,28608,28385,,146,320,2,12,1,3490,54815572
-303,595,-93,-0.172474,-0.281058,-8.0772,2.447925,1.628775,0.856035,131,82.337036,12.310181,117.015381,131,43.659668,1.010742,4.460449,533,353,668,0.886719,2,-3,28395,28628,28408,,146,320,2,12,1,3491,54815676
-304,595,-94,-0.172475,-0.281056,-7.629525,2.066925,0.866775,0.789231,131,86.77002,11.876221,117.15271,131,44.384766,0.944824,4.482422,533,352,668,0.886719,2,-3,28405,28644,28418,,146,320,2,12,1,3491,54815768
-305,595,-96,-0.172475,-0.281054,-7.343775,1.80975,0.1905,0.749533,131,91.235962,11.431274,117.246094,131,44.560547,0.812988,4.504395,533,352,668,0.886719,2,-3,28430,28660,28443,,146,320,2,12,1,3491,54815876
-307,594,-96,-0.172476,-0.281052,-6.886575,1.46685,-0.428625,0.696156,131,95.718384,10.980835,117.295532,131,44.824219,0.74707,4.482422,533,352,669,0.886719,2,-3,28443,28680,28455,,146,320,2,12,1,3492,54815968
-308,594,-98,-0.172477,-0.281051,-6.391275,1.16205,-0.962025,0.645954,131,100.233765,10.530396,117.306519,131,45.241699,0.703125,4.460449,533,352,669,0.886719,2,-3,28473,28696,28485,,146,320,2,12,1,3492,54816080
-309,594,-98,-0.172478,-0.281049,-5.895975,0.809625,-1.39065,0.597043,131,104.793091,10.079956,117.284546,131,45.791016,0.769043,4.438477,533,352,670,0.886719,2,-3,28480,28712,28493,,146,320,2,12,1,3492,54816168
-310,594,-99,-0.172479,-0.281047,-5.438775,0.504825,-1.905,0.561678,131,109.379883,9.63501,117.229614,131,46.010742,0.834961,4.394531,533,352,670,0.886719,2,-3,28508,28728,28520,,146,320,2,12,1,3492,54816276
-311,594,-100,-0.172479,-0.281045,-4.9149,0.257175,-2.15265,0.519031,131,114.038086,9.195557,117.15271,131,46.889648,0.966797,4.328613,533,352,670,0.886719,2,-4,28518,28740,28530,,146,320,2,12,1,3492,54816368
-312,594,-101,-0.17248,-0.281044,-4.371975,-0.13335,-2.371725,0.472549,131,118.712769,8.772583,117.053833,131,46.647949,1.054688,4.174805,532,351,671,0.886719,1,-4,28543,28756,28555,,146,320,2,12,1,3492,54816476
-313,594,-101,-0.172481,-0.281042,-3.819525,-0.28575,-2.505075,0.43339,131,123.294067,8.371582,116.938477,132,45.571289,1.010742,3.933105,532,351,671,0.884766,1,-4,28543,28776,28555,,146,320,2,12,1,3492,54816572
-314,594,-102,-0.172482,-0.28104,-3.3528,-0.6096,-2.581275,0.395839,131,127.705078,8.009033,116.795654,132,43.527832,0.922852,3.691406,532,351,671,0.884766,1,-4,28568,28788,28583,,146,320,2,12,1,3492,54816676
-314,594,-102,-0.172483,-0.281038,-2.790825,-0.85725,-2.524125,0.348245,130,131.918335,7.679443,116.630859,132,41.813965,0.878906,3.493652,532,351,672,0.884766,1,-4,28575,28804,28590,,146,320,2,12,1,3491,54816768
-315,594,-103,-0.172483,-0.281037,-2.333625,-1.08585,-2.45745,0.310799,130,135.966797,7.388306,116.449585,132,40.166016,0.74707,3.273926,532,351,672,0.886719,1,-4,28603,28816,28615,,146,320,2,12,1,3491,54816876
-315,594,-103,-0.172484,-0.281035,-1.80975,-1.266825,-2.257425,0.262599,130,139.844971,7.130127,116.251831,132,38.430176,0.571289,3.076172,532,351,673,0.884766,1,-4,28610,28828,28625,,146,320,2,12,1,3490,54816968
-315,595,-103,-0.172485,-0.281033,-1.304925,-1.514475,-1.9431,0.207431,130,143.525391,6.9104,116.048584,132,36.276855,0.41748,2.856445,532,351,673,0.886719,1,-5,28630,28840,28643,,146,320,2,12,1,3490,54817080
-316,595,-103,-0.172486,-0.281031,-0.942975,-1.54305,-1.7145,0.172946,130,147.01355,6.729126,115.845337,132,34.387207,0.307617,2.614746,532,351,673,0.886719,1,-5,28638,28852,28650,,146,320,2,12,1,3489,54817168
-316,595,-103,-0.172487,-0.281029,-0.447675,-1.685925,-1.16205,0.102779,129,150.3479,6.575317,115.647583,132,32.937012,0.241699,2.39502,532,351,674,0.886719,1,-5,28660,28864,28673,,146,320,2,12,1,3489,54817276
-316,596,-103,-0.172488,-0.281028,-0.085725,-1.876425,-0.752475,0.052462,129,153.561401,6.443481,115.460815,132,31.794434,0.241699,2.15332,532,351,674,0.886719,1,-5,28668,28876,28680,,146,320,2,12,1,3488,54817368
-316,596,-103,-0.172488,-0.281026,0.17145,-1.8669,-0.3048,0.006134,129,156.626587,6.339111,115.285034,132,30.168457,0.197754,1.933594,532,350,674,0.886719,0,-5,28688,28888,28700,,146,320,2,12,1,3488,54817476
-316,596,-103,-0.172489,-0.281024,0.32385,-1.838325,0.180975,-0.039929,129,159.510498,6.262207,115.125732,132,27.993164,0.109863,1.669922,532,350,675,0.886719,0,-5,28688,28896,28700,,146,320,2,12,1,3488,54817572
-316,597,-102,-0.17249,-0.281022,0.5334,-1.952625,0.6477,-0.087519,129,162.147217,6.201782,114.988403,132,25.598145,0.065918,1.296387,532,350,675,0.886719,0,-6,28705,28904,28718,,146,320,2,12,1,3487,54817676
-316,597,-102,-0.172491,-0.28102,0.6858,-1.895475,1.114425,-0.132581,129,164.569702,6.168823,114.87854,132,23.642578,0.043945,1.07666,532,350,675,0.886719,0,-6,28713,28916,28725,,146,320,2,12,1,3487,54817768
-315,598,-101,-0.172492,-0.281019,0.923925,-1.990725,1.54305,-0.176321,129,166.849365,6.146851,114.785156,132,22.675781,0.065918,0.900879,532,350,676,0.886719,0,-6,28730,28924,28743,,146,320,2,12,1,3487,54817876
-315,598,-100,-0.172492,-0.281017,0.8763,-1.876425,1.8669,-0.202276,128,169.085083,6.130371,114.702759,132,22.434082,0.021973,0.812988,532,350,676,0.886719,0,-6,28735,28936,28748,,146,320,2,12,1,3486,54817968
-315,598,-99,-0.172493,-0.281015,0.866775,-1.800225,2.45745,-0.256471,128,171.315308,6.119385,114.631348,132,22.302246,0.0,0.637207,532,350,676,0.886719,0,-6,28748,28944,28760,,146,320,2,12,1,3486,54818080
-315,599,-99,-0.172494,-0.281013,0.828675,-1.69545,3.02895,-0.309115,128,173.545532,6.113892,114.576416,132,22.478027,-0.043945,0.483398,532,350,676,0.886719,0,-7,28750,28952,28763,,146,320,2,12,1,3486,54818168
-315,599,-97,-0.172495,-0.281011,0.78105,-1.666875,3.571875,-0.35898,128,175.748291,6.113892,114.543457,131,21.555176,0.043945,0.307617,531,350,677,0.884766,-1,-7,28765,28964,28778,,146,320,2,12,1,3485,54818276
-315,599,-96,-0.172496,-0.28101,0.657225,-1.438275,3.98145,-0.397028,128,177.753296,6.102905,114.526978,131,18.830566,0.087891,0.0,531,349,677,0.884766,-1,-7,28770,28972,28783,,146,320,2,12,1,3485,54818368
-314,600,-95,-0.172496,-0.281008,0.43815,-1.247775,4.219575,-0.418558,128,179.401245,6.086426,114.54895,131,14.743652,0.131836,-0.373535,532,350,677,0.886719,-1,-7,28783,28980,28798,,146,320,2,12,1,3485,54818476
-314,600,-94,-0.172497,-0.281006,0.390525,-1.209675,4.70535,-0.466128,128,-179.390259,6.05896,114.603882,131,10.393066,0.219727,-0.637207,531,349,677,0.886719,-1,-7,28785,28988,28798,,146,320,2,12,1,3485,54818572
-314,600,-92,-0.172498,-0.281004,0.3048,-1.143,4.829175,-0.477932,128,-178.59375,6.036987,114.675293,131,6.350098,0.285645,-0.812988,532,350,677,0.886719,-1,-8,28795,28996,28808,,146,320,2,12,1,3484,54818676
-314,600,-91,-0.172499,-0.281002,0.257175,-1.16205,4.943475,-0.488612,129,-178.154297,6.009521,114.763184,131,3.493652,0.32959,-0.878906,531,349,677,0.886719,-1,-8,28798,29004,28810,,146,320,2,12,1,3484,54818768
-314,600,-88,-0.1725,-0.281001,0.180975,-1.143,5.229225,-0.517389,129,-177.890625,5.971069,114.845581,131,2.109375,0.41748,-0.856934,531,349,678,0.886719,-1,-8,28808,29012,28820,,146,320,2,12,1,3484,54818876
-314,601,-88,-0.1725,-0.280999,0.257175,-1.209675,5.343525,-0.528147,129,-177.709351,5.921631,114.933472,131,1.647949,0.505371,-0.834961,531,349,678,0.886719,-1,-8,28808,29020,28820,,146,320,2,12,1,3484,54818968
-314,601,-85,-0.172501,-0.280997,0.0,-1.1049,5.553075,-0.550315,129,-177.550049,5.866699,115.010376,131,1.538086,0.593262,-0.791016,531,349,678,0.886719,-1,-8,28818,29028,28830,,146,320,2,12,1,3484,54819076
-314,601,-84,-0.172502,-0.280995,0.047625,-1.04775,5.5626,-0.551939,129,-177.418213,5.806274,115.081787,131,1.252441,0.571289,-0.725098,531,349,678,0.886719,-1,-8,28820,29036,28833,,146,320,2,12,1,3483,54819168
-314,601,-81,-0.172503,-0.280994,-0.0762,-1.038225,5.8293,-0.579052,129,-177.280884,5.74585,115.147705,131,1.208496,0.527344,-0.703125,531,349,678,0.886719,-2,-8,28828,29040,28843,,146,320,2,12,1,3483,54819276
-314,601,-80,-0.172504,-0.280992,-0.20955,-0.93345,5.88645,-0.586098,129,-177.198486,5.690918,115.213623,131,0.263672,0.461426,-0.703125,531,349,679,0.886719,-2,-8,28830,29048,28845,,146,320,2,12,1,3483,54819368
-314,602,-76,-0.172504,-0.28099,-0.352425,-0.904875,6.105525,-0.608857,129,-177.324829,5.641479,115.285034,131,-2.548828,0.461426,-0.769043,531,349,679,0.886719,-2,-9,28840,29056,28853,,146,320,2,12,1,3483,54819476
-314,602,-75,-0.172505,-0.280988,-0.40005,-0.752475,6.11505,-0.611805,129,-177.764282,5.592041,115.367432,131,-5.976563,0.41748,-0.834961,531,349,679,0.886719,-2,-9,28843,29064,28855,,146,320,2,12,1,3483,54819572
-314,602,-72,-0.172506,-0.280986,-0.390525,-0.81915,6.15315,-0.615343,129,-178.511353,5.548096,115.449829,131,-8.547363,0.41748,-0.834961,531,349,679,0.886719,-2,-9,28848,29068,28860,,146,320,2,12,1,3483,54819676
-314,602,-71,-0.172507,-0.280985,-0.13335,-0.89535,6.143625,-0.614832,129,-179.406738,5.498657,115.52124,131,-9.030762,0.505371,-0.637207,531,349,679,0.886719,-2,-9,28853,29076,28865,,146,320,2,12,1,3482,54819768
-315,602,-67,-0.172508,-0.280983,-0.161925,-0.9906,6.067425,-0.606684,129,179.846191,5.443726,115.565186,131,-6.437988,0.637207,-0.307617,531,349,679,0.886719,-2,-9,28860,29084,28873,,146,320,2,12,1,3483,54819876
-315,602,-66,-0.172509,-0.280981,-0.066675,-0.942975,6.096,-0.610828,129,179.390259,5.383301,115.576172,131,-3.383789,0.637207,0.021973,532,349,680,0.886719,-2,-9,28863,29088,28878,,146,320,2,12,1,3487,54819968
-315,603,-63,-0.172509,-0.280979,-0.161925,-0.9525,6.181725,-0.619184,129,179.214478,5.322876,115.559692,131,-0.703125,0.681152,0.197754,532,350,680,0.886719,-2,-9,28870,29096,28883,,146,320,2,12,1,3489,54820080
-315,603,-62,-0.17251,-0.280977,-0.123825,-1.000125,6.2865,-0.629806,129,179.263916,5.256958,115.532227,131,1.40625,0.65918,0.285645,532,350,680,0.888672,-2,-9,28875,29100,28888,,146,320,2,12,1,3492,54820168
-315,603,-58,-0.172511,-0.280976,-0.09525,-0.93345,6.2103,-0.622814,129,179.505615,5.185547,115.504761,131,3.208008,0.65918,0.351563,532,350,680,0.888672,-2,-9,28885,29108,28898,,146,320,2,12,1,3495,54820276
-315,603,-57,-0.172512,-0.280974,-0.123825,-0.981075,6.49605,-0.651304,129,179.912109,5.114136,115.466309,131,4.746094,0.74707,0.351563,532,350,680,0.888672,-2,-9,28888,29112,28900,,146,320,2,12,1,3497,54820368
-315,603,-54,-0.172513,-0.280972,-0.180975,-0.9144,6.34365,-0.636065,129,-179.533081,5.042725,115.427856,131,5.932617,0.769043,0.373535,532,350,680,0.888672,-2,-9,28898,29120,28913,,146,320,2,12,1,3499,54820476
-315,604,-54,-0.172513,-0.28097,-0.257175,-0.8382,6.53415,-0.655775,129,-178.917847,4.96582,115.389404,131,6.240234,0.725098,0.32959,532,350,681,0.888672,-2,-9,28900,29124,28913,,146,320,2,12,1,3501,54820572
-315,604,-51,-0.172514,-0.280968,-0.333375,-0.847725,6.3627,-0.638064,129,-178.335571,4.899902,115.356445,131,5.712891,0.681152,0.263672,532,350,681,0.888672,-2,-9,28908,29132,28920,,146,320,2,12,1,3503,54820676
-315,604,-50,-0.172515,-0.280966,-0.2667,-0.89535,6.477,-0.649171,129,-177.824707,4.828491,115.328979,131,4.790039,0.725098,0.241699,532,350,681,0.888672,-2,-9,28913,29136,28925,,146,320,2,12,1,3504,54820768
-315,604,-48,-0.172516,-0.280965,-0.381,-0.85725,6.581775,-0.660088,129,-177.390747,4.762573,115.301514,131,4.108887,0.725098,0.219727,533,350,681,0.890625,-2,-9,28920,29140,28933,,146,320,2,12,1,3505,54820876
-315,604,-47,-0.172517,-0.280963,-0.428625,-0.78105,6.5151,-0.654078,129,-177.028198,4.696655,115.279541,131,3.47168,0.637207,0.175781,533,350,681,0.890625,-2,-9,28923,29148,28938,,146,320,2,12,1,3507,54820968
-315,604,-45,-0.172517,-0.280961,-0.428625,-0.78105,6.53415,-0.655978,129,-176.704102,4.641724,115.257568,131,3.120117,0.65918,0.153809,533,350,681,0.890625,-2,-9,28930,29152,28943,,146,320,2,12,1,3508,54821076
-315,605,-44,-0.172518,-0.280959,-0.43815,-0.8763,6.5532,-0.656968,129,-176.44043,4.581299,115.241089,131,2.548828,0.681152,0.109863,533,350,682,0.890625,-2,-9,28938,29156,28950,,146,320,2,12,1,3509,54821168
-315,605,-42,-0.172519,-0.280957,-0.428625,-0.752475,6.677025,-0.670783,129,-176.226196,4.515381,115.230103,131,1.955566,0.615234,0.087891,533,351,682,0.890625,-2,-9,28945,29160,28958,,146,320,2,12,1,3510,54821276
-315,605,-42,-0.17252,-0.280956,-0.466725,-0.81915,6.600825,-0.662553,129,-176.077881,4.449463,115.213623,131,1.318359,0.615234,0.043945,533,351,682,0.890625,-2,-9,28948,29168,28960,,146,320,2,12,1,3511,54821368
-315,605,-41,-0.172521,-0.280954,-0.542925,-0.85725,6.791325,-0.681831,129,-176.00647,4.389038,115.202637,131,0.505371,0.637207,0.021973,533,351,682,0.892578,-2,-9,28953,29172,28968,,146,320,2,12,1,3513,54821476
-315,605,-40,-0.172522,-0.280952,-0.390525,-0.81915,6.64845,-0.667428,129,-176.011963,4.32312,115.202637,131,-0.395508,0.593262,-0.021973,534,351,682,0.892578,-2,-9,28955,29176,28968,,146,320,2,12,1,3515,54821572
-315,605,-39,-0.172522,-0.28095,-0.47625,-0.81915,6.734175,-0.676603,129,-176.099854,4.262695,115.202637,131,-1.230469,0.65918,-0.087891,534,351,683,0.892578,-2,-9,28963,29180,28975,,146,320,2,12,1,3517,54821676
-316,606,-39,-0.172523,-0.280948,-0.371475,-0.6858,6.5913,-0.663375,129,-176.281128,4.196777,115.213623,131,-2.197266,0.65918,-0.153809,534,351,683,0.892578,-2,-9,28965,29184,28978,,146,320,2,12,1,3520,54821768
-316,606,-38,-0.172524,-0.280947,-0.47625,-0.733425,6.6675,-0.671242,129,-176.550293,4.130859,115.224609,131,-2.988281,0.65918,-0.153809,534,351,683,0.892578,-2,-9,28970,29188,28983,,146,320,2,12,1,3523,54821876
-316,606,-38,-0.172525,-0.280945,-0.447675,-0.89535,6.80085,-0.683614,129,-176.879883,4.059448,115.235596,131,-3.493652,0.725098,-0.153809,534,351,683,0.892578,-2,-9,28975,29192,28988,,146,320,2,12,1,3526,54821968
-316,606,-37,-0.172526,-0.280943,-0.371475,-0.847725,6.524625,-0.656212,129,-177.231445,3.999023,115.246582,131,-3.581543,0.74707,-0.131836,534,351,683,0.892578,-2,-9,28978,29196,28993,,146,320,2,12,1,3530,54822080
-316,606,-37,-0.172526,-0.280941,-0.295275,-0.847725,6.600825,-0.664266,129,-177.583008,3.927612,115.257568,131,-3.427734,0.637207,-0.131836,534,351,684,0.892578,-2,-9,28980,29200,28995,,146,320,2,12,1,3534,54822168
-316,606,-36,-0.172527,-0.280939,-0.32385,-0.942975,6.6675,-0.670657,129,-177.901611,3.867188,115.268555,131,-3.098145,0.615234,-0.131836,535,352,684,0.894531,-2,-9,28988,29204,29000,,146,320,2,12,1,3539,54822276
-316,607,-36,-0.172528,-0.280938,-0.3048,-0.847725,6.5913,-0.663955,129,-178.198242,3.806763,115.274048,131,-2.834473,0.571289,-0.087891,535,352,684,0.894531,-2,-9,28988,29208,29000,,146,320,2,12,1,3544,54822368
-316,607,-35,-0.172529,-0.280936,-0.352425,-0.866775,6.72465,-0.677655,129,-178.4729,3.740845,115.274048,131,-2.724609,0.65918,-0.021973,535,352,684,0.894531,-2,-9,28995,29212,29008,,146,320,2,12,1,3549,54822476
-316,607,-35,-0.17253,-0.280934,-0.257175,-0.885825,6.562725,-0.661388,129,-178.736572,3.674927,115.274048,131,-2.570801,0.637207,-0.021973,535,352,684,0.894531,-2,-9,28998,29216,29010,,146,320,2,12,1,3554,54822572
-316,607,-34,-0.17253,-0.280932,-0.2667,-0.97155,6.68655,-0.673704,129,-179.005737,3.609009,115.279541,131,-2.746582,0.703125,0.0,535,352,684,0.894531,-2,-9,29000,29220,29013,,146,320,2,12,1,3560,54822676
-316,607,-34,-0.172531,-0.28093,-0.276225,-1.00965,6.467475,-0.651465,129,-179.296875,3.543091,115.274048,131,-2.878418,0.65918,0.065918,535,352,685,0.894531,-2,-9,29003,29224,29018,,146,320,2,12,1,3567,54822768
-316,608,-33,-0.172532,-0.280928,-0.257175,-1.095375,6.505575,-0.655183,129,-179.58252,3.47168,115.263062,131,-2.702637,0.725098,0.087891,535,352,685,0.894531,-2,-9,29005,29228,29018,,146,320,2,12,1,3573,54822876
-316,608,-33,-0.172533,-0.280927,-0.09525,-1.00965,6.4008,-0.645685,129,-179.829712,3.400269,115.252075,131,-2.307129,0.65918,0.109863,535,352,685,0.896484,-2,-9,29005,29228,29018,,146,320,2,12,1,3580,54822968
-316,608,-32,-0.172534,-0.280925,-0.1905,-1.1049,6.4389,-0.649083,129,179.983521,3.334351,115.241089,131,-1.516113,0.65918,0.109863,535,352,685,0.896484,-2,-9,29013,29232,29025,,146,320,2,12,1,3587,54823076
-316,608,-32,-0.172535,-0.280923,-0.1905,-1.00965,6.353175,-0.641089,129,179.868164,3.262939,115.224609,131,-0.812988,0.65918,0.175781,536,352,685,0.896484,-2,-9,29015,29236,29028,,146,320,2,12,1,3594,54823168
-316,608,-31,-0.172535,-0.280921,-0.161925,-1.04775,6.372225,-0.643092,129,179.851685,3.191528,115.202637,131,0.197754,0.681152,0.263672,536,352,686,0.896484,-2,-9,29020,29240,29033,,146,320,2,12,1,3602,54823276
-316,609,-31,-0.172536,-0.280919,-0.180975,-1.133475,6.45795,-0.651474,129,179.939575,3.120117,115.175171,131,1.032715,0.812988,0.307617,536,353,686,0.896484,-2,-9,29020,29240,29033,,146,320,2,12,1,3610,54823368
-316,609,-30,-0.172537,-0.280918,-0.1143,-1.1811,6.562725,-0.662144,129,-179.884644,3.043213,115.142212,131,1.977539,0.812988,0.285645,536,353,686,0.896484,-2,-9,29025,29244,29040,,146,320,2,12,1,3617,54823476
-316,609,-30,-0.172538,-0.280916,-0.161925,-1.095375,6.410325,-0.646997,129,-179.653931,2.966309,115.120239,131,2.351074,0.834961,0.219727,536,353,686,0.898438,-2,-9,29025,29248,29038,,146,320,2,12,1,3626,54823572
-316,609,-29,-0.172539,-0.280914,-0.20955,-1.0668,6.34365,-0.640333,129,-179.412231,2.883911,115.098267,131,2.48291,0.791016,0.175781,536,353,686,0.898438,-2,-9,29030,29248,29043,,146,320,2,12,1,3634,54823676
-316,609,-28,-0.172539,-0.280912,-0.200025,-1.209675,6.391275,-0.644503,129,-179.181519,2.807007,115.081787,131,2.263184,0.834961,0.175781,536,353,687,0.898438,-2,-9,29033,29252,29045,,146,320,2,12,1,3642,54823768
-316,610,-27,-0.17254,-0.28091,-0.276225,-1.0287,6.34365,-0.64059,129,-178.961792,2.730103,115.059814,131,2.131348,0.769043,0.175781,537,353,687,0.898438,-2,-9,29035,29252,29048,,146,320,2,12,1,3650,54823876
-316,610,-27,-0.172541,-0.280908,-0.28575,-1.076325,6.372225,-0.643339,129,-178.786011,2.653198,115.043335,131,1.625977,0.703125,0.153809,537,353,687,0.898438,-2,-9,29038,29256,29050,,146,320,2,12,1,3658,54823968
-317,610,-26,-0.172542,-0.280907,-0.333375,-1.000125,6.30555,-0.637061,129,-178.654175,2.576294,115.026855,131,1.010742,0.725098,0.109863,537,354,687,0.898438,-2,-9,29040,29256,29055,,146,320,2,12,1,3666,54824080
-317,610,-26,-0.172543,-0.280905,-0.3048,-0.9525,6.353175,-0.642294,129,-178.615723,2.504883,115.015869,131,-0.021973,0.681152,0.065918,537,354,687,0.900391,-2,-9,29040,29260,29055,,146,320,2,12,1,3674,54824168
-317,610,-25,-0.172543,-0.280903,-0.257175,-1.057275,6.372225,-0.643869,129,-178.654175,2.438965,115.010376,131,-0.571289,0.703125,0.043945,537,354,688,0.900391,-2,-9,29043,29260,29055,,146,320,2,12,1,3682,54824276
-317,611,-24,-0.172544,-0.280901,-0.2667,-1.12395,6.34365,-0.640873,129,-178.747559,2.367554,115.004883,131,-0.812988,0.74707,0.043945,538,354,688,0.900391,-2,-9,29045,29264,29058,,146,320,2,12,1,3690,54824368
-317,611,-24,-0.172545,-0.280899,-0.1905,-1.057275,6.26745,-0.633641,129,-178.81897,2.290649,114.99939,131,-0.41748,0.769043,0.065918,538,354,688,0.900391,-2,-9,29048,29264,29060,,146,320,2,12,1,3699,54824476
-317,611,-23,-0.172546,-0.280897,-0.257175,-1.095375,6.238875,-0.630755,129,-178.846436,2.219238,114.988403,131,0.087891,0.791016,0.065918,538,354,688,0.900391,-2,-9,29050,29264,29063,,146,320,2,12,1,3707,54824572
-317,611,-22,-0.172547,-0.280896,-0.066675,-1.171575,6.238875,-0.630554,129,-178.835449,2.142334,114.977417,131,0.505371,0.812988,0.087891,538,354,688,0.902344,-2,-9,29053,29268,29065,,146,320,2,12,1,3715,54824676
-317,612,-22,-0.172548,-0.280894,-0.123825,-1.095375,6.086475,-0.615501,129,-178.769531,2.059937,114.971924,131,0.769043,0.812988,0.043945,538,355,689,0.902344,-2,-9,29053,29268,29065,,146,320,2,12,1,3723,54824768
-317,612,-21,-0.172548,-0.280892,-0.1905,-1.2573,6.353175,-0.642155,129,-178.692627,1.977539,114.966431,131,0.834961,0.812988,0.021973,539,355,689,0.902344,-2,-9,29053,29268,29065,,146,320,2,12,1,3730,54824876
-317,612,-21,-0.172549,-0.28089,-0.2286,-1.1811,6.07695,-0.614455,129,-178.582764,1.900635,114.960938,131,1.186523,0.791016,-0.021973,539,355,689,0.902344,-2,-9,29053,29268,29065,,146,320,2,12,1,3738,54824968
-317,612,-20,-0.17255,-0.280888,-0.085725,-1.2954,6.1722,-0.623656,129,-178.478394,1.818237,114.966431,131,0.98877,0.769043,-0.043945,539,355,689,0.904297,-2,-9,29055,29272,29068,,146,320,2,12,1,3746,54825080
-317,613,-20,-0.172551,-0.280887,-0.180975,-1.114425,5.9817,-0.605144,129,-178.341064,1.741333,114.966431,131,1.296387,0.791016,-0.087891,539,355,690,0.904297,-2,-9,29055,29272,29068,,146,320,2,12,1,3754,54825168
-317,613,-19,-0.172552,-0.280885,-0.1905,-1.228725,6.086475,-0.615443,129,-178.209229,1.658936,114.977417,131,1.230469,0.791016,-0.087891,540,356,690,0.904297,-2,-9,29060,29272,29073,,146,320,2,12,1,3761,54825276
-317,613,-19,-0.172552,-0.280883,-0.381,-1.143,6.03885,-0.611346,129,-178.044434,1.576538,114.98291,131,1.691895,0.834961,-0.109863,540,356,690,0.904297,-2,-9,29060,29272,29073,,146,320,2,12,1,3768,54825368
-317,613,-18,-0.172553,-0.280881,-0.333375,-1.190625,5.895975,-0.59659,129,-177.868652,1.488647,114.993896,131,1.845703,0.834961,-0.109863,540,356,690,0.904297,-2,-9,29060,29272,29073,,146,320,2,12,1,3776,54825476
-317,613,-17,-0.172554,-0.280879,-0.32385,-1.152525,5.84835,-0.59191,129,-177.665405,1.40625,114.99939,131,2.241211,0.878906,-0.087891,540,356,690,0.904297,-2,-9,29060,29272,29073,,146,320,2,12,1,3782,54825572
-317,614,-17,-0.172555,-0.280877,-0.2286,-1.2192,5.934075,-0.600065,129,-177.407227,1.318359,114.99939,131,3.317871,0.834961,-0.043945,540,356,691,0.90625,-2,-9,29058,29272,29073,,146,320,2,12,1,3790,54825676
-317,614,-16,-0.172556,-0.280876,-0.24765,-1.266825,5.73405,-0.579175,129,-176.846924,1.230469,114.993896,131,7.734375,0.791016,0.131836,540,356,691,0.90625,-2,-9,29058,29272,29070,,146,320,2,12,1,3797,54825768
-317,614,-15,-0.172557,-0.280874,-0.257175,-1.209675,5.715,-0.576457,129,-175.753784,1.148071,114.960938,131,13.293457,0.878906,0.351563,541,357,691,0.90625,-2,-9,29058,29272,29070,,146,320,2,12,1,3803,54825876
-317,614,-15,-0.172557,-0.280872,-0.2667,-1.1811,5.7531,-0.578415,129,-174.056396,1.060181,114.911499,131,19.35791,0.878906,0.41748,541,357,691,0.90625,-2,-9,29058,29272,29070,,146,320,2,12,1,3810,54825968
-317,615,-14,-0.172558,-0.28087,-0.36195,-1.23825,5.88645,-0.588899,129,-171.77124,0.97229,114.862061,131,25.202637,0.966797,0.439453,541,357,692,0.90625,-2,-9,29063,29272,29075,,146,320,2,12,1,3816,54826080
-318,615,-14,-0.172559,-0.280868,-0.485775,-1.04775,5.610225,-0.559408,129,-168.87085,0.873413,114.801636,131,31.640625,1.032715,0.395508,541,357,692,0.908203,-2,-9,29063,29272,29075,,146,320,2,12,1,3822,54826168
-318,615,-13,-0.17256,-0.280866,-0.561975,-1.038225,5.39115,-0.531898,129,-165.283813,0.774536,114.735718,131,38.847656,1.230469,0.41748,542,357,692,0.908203,-2,-9,29063,29272,29078,,146,320,2,12,1,3828,54826276
-318,615,-13,-0.172561,-0.280864,-0.62865,-1.04775,5.31495,-0.514899,128,-160.861816,0.664673,114.658813,131,47.724609,1.318359,0.439453,542,357,692,0.908203,-2,-8,29063,29272,29078,,146,320,2,12,1,3834,54826368
-318,615,-12,-0.172561,-0.280863,-0.8382,-1.076325,5.20065,-0.494532,128,-155.549927,0.55481,114.570923,131,56.469727,1.362305,0.395508,542,358,693,0.910156,-1,-8,29068,29268,29080,,146,320,2,12,1,3839,54826476
-318,616,-12,-0.172562,-0.280861,-0.942975,-0.93345,4.810125,-0.445438,128,-149.397583,0.450439,114.483032,131,64.665527,1.340332,0.197754,542,358,693,0.910156,-1,-8,29070,29268,29083,,146,320,2,12,1,3844,54826572
-318,616,-11,-0.172563,-0.280859,-1.143,-0.8763,4.524375,-0.407103,128,-142.498169,0.346069,114.406128,131,71.608887,1.252441,-0.087891,543,358,693,0.910156,-1,-8,29075,29268,29088,,146,320,2,12,1,3849,54826676
-319,616,-11,-0.172564,-0.280857,-1.23825,-0.8382,4.048125,-0.347352,128,-134.978027,0.236206,114.351196,131,77.541504,1.054688,-0.461426,543,358,693,0.910156,-1,-7,29075,29264,29090,,146,320,2,12,1,3854,54826768
-319,616,-10,-0.172565,-0.280855,-1.190625,-0.866775,3.60045,-0.279336,128,-126.958008,0.126343,114.318237,131,81.782227,0.834961,-0.812988,544,359,694,0.912109,0,-7,29083,29264,29095,,146,320,2,12,1,3857,54826876
-319,616,-10,-0.172566,-0.280853,-1.247775,-0.962025,3.133725,-0.218689,128,-118.608398,0.0,114.312744,131,84.528809,0.593262,-1.164551,544,359,694,0.912109,0,-6,29088,29260,29100,,146,320,2,12,1,3861,54826968
-319,617,-9,-0.172566,-0.280852,-1.076325,-1.0668,2.657475,-0.144205,128,-110.061035,-0.142822,114.32373,131,85.78125,0.395508,-1.494141,544,359,694,0.914063,0,-6,29090,29260,29103,,146,320,2,12,1,3864,54827076
-319,617,-9,-0.172567,-0.28085,-0.828675,-1.190625,2.30505,-0.072579,128,-101.486206,-0.307617,114.351196,131,85.627441,0.087891,-1.779785,544,359,694,0.914063,0,-6,29088,29256,29103,,146,320,2,12,1,3867,54827168
-320,617,-9,-0.172568,-0.280848,-0.581025,-1.35255,2.085975,-0.007357,128,-92.982788,-0.494385,114.389648,131,84.440918,-0.175781,-1.911621,545,360,695,0.914063,0,-5,29085,29256,29098,,146,320,2,12,1,3869,54827276
-320,617,-9,-0.172569,-0.280846,-0.51435,-1.42875,1.971675,0.031945,128,-84.710083,-0.686646,114.417114,131,81.606445,-0.395508,-1.955566,545,360,695,0.914063,0,-5,29083,29252,29095,,146,320,2,12,1,3870,54827368
-320,618,-9,-0.17257,-0.280844,-0.32385,-1.6002,1.96215,0.083778,128,-76.734009,-0.889893,114.44458,131,78.398438,-0.571289,-1.999512,545,360,695,0.916016,1,-5,29073,29248,29085,,146,320,2,12,1,3872,54827476
-320,618,-9,-0.17257,-0.280842,-0.085725,-1.65735,1.84785,0.12689,128,-69.13147,-1.104126,114.450073,131,74.399414,-0.681152,-1.999512,545,360,696,0.916016,1,-5,29070,29244,29083,,146,320,2,12,1,3873,54827572
-320,618,-8,-0.172571,-0.280841,0.0,-1.73355,1.933575,0.159711,128,-61.951904,-1.312866,114.433594,131,70.092773,-0.791016,-1.977539,546,361,696,0.916016,1,-5,29063,29244,29075,,146,320,2,12,1,3874,54827676
-320,619,-8,-0.172572,-0.280839,0.200025,-1.800225,1.9431,0.1936,128,-55.239258,-1.521606,114.406128,131,64.995117,-0.878906,-1.889648,546,361,696,0.916016,1,-5,29058,29240,29070,,146,320,2,12,1,3875,54827768
-320,619,-8,-0.172573,-0.280837,0.257175,-1.84785,2.047875,0.217384,128,-49.031982,-1.71936,114.362183,131,60.073242,-0.878906,-1.779785,546,361,696,0.917969,1,-5,29048,29236,29060,,146,320,2,12,1,3876,54827876
-320,619,-7,-0.172574,-0.280835,0.20955,-1.857375,2.066925,0.224674,128,-43.308105,-1.906128,114.307251,131,55.305176,-0.966797,-1.669922,547,362,697,0.917969,1,-5,29043,29228,29055,,146,320,2,12,1,3876,54827968
-319,620,-6,-0.172575,-0.280833,0.24765,-1.800225,2.15265,0.238415,128,-38.029175,-2.076416,114.252319,131,50.976563,-0.944824,-1.538086,547,362,697,0.917969,1,-5,29033,29224,29045,,146,320,2,12,1,3877,54828080
-319,620,-6,-0.172575,-0.280831,0.295275,-1.838325,2.409825,0.268233,128,-33.167725,-2.241211,114.191895,131,46.801758,-0.966797,-1.384277,547,362,697,0.917969,1,-5,29028,29220,29040,,146,320,2,12,1,3878,54828168
-319,620,-5,-0.172576,-0.280829,0.2667,-1.8288,2.57175,0.284545,128,-28.712769,-2.384033,114.13147,131,43.110352,-0.922852,-1.164551,547,362,698,0.919922,1,-5,29018,29216,29030,,146,320,2,12,1,3878,54828276
-319,621,-4,-0.172577,-0.280828,0.047625,-1.8669,2.6289,0.284864,128,-24.620361,-2.504883,114.076538,131,39.528809,-0.834961,-0.98877,548,363,698,0.919922,1,-5,29013,29208,29025,,146,320,2,12,1,3879,54828368
-319,621,-3,-0.172578,-0.280826,0.085725,-1.971675,2.8956,0.315599,128,-20.863037,-2.609253,114.021606,131,36.320801,-0.725098,-0.834961,548,363,698,0.919922,1,-5,29003,29204,29015,,146,320,2,12,1,3879,54828476
-319,621,-2,-0.172579,-0.280824,0.104775,-1.838325,3.114675,0.33618,128,-17.391357,-2.697144,113.972168,131,33.486328,-0.549316,-0.703125,548,363,699,0.919922,0,-5,28998,29200,29010,,147,320,2,12,1,3880,54828572
-319,622,0,-0.17258,-0.280822,0.13335,-1.6764,3.56235,0.378979,128,-14.238281,-2.746582,113.917236,131,30.212402,-0.043945,-0.549316,549,364,699,0.921875,1,-5,28993,29192,29005,,147,320,2,12,1,3881,54828676
-319,622,1,-0.17258,-0.28082,0.1524,-1.7907,4.067175,0.43113,128,-11.436768,-2.719116,113.862305,131,26.455078,0.637207,-0.461426,549,364,699,0.921875,1,-5,28988,29188,29000,,148,320,2,12,1,3881,54828768
-319,623,3,-0.172581,-0.280818,0.047625,-1.88595,4.6482,0.488496,128,-9.030762,-2.625732,113.80188,131,22.521973,1.186523,-0.373535,549,364,700,0.921875,1,-5,28978,29180,28990,,149,320,2,12,1,3881,54828876
-319,623,4,-0.172582,-0.280816,0.0,-1.952625,5.686425,0.592731,128,-6.992798,-2.493896,113.752441,131,18.94043,1.384277,-0.241699,550,364,700,0.923828,1,-5,28973,29172,28985,,149,321,2,12,1,3882,54828968
-319,623,7,-0.172583,-0.280815,-0.0381,-2.009775,6.45795,0.670313,127,-5.300903,-2.373047,113.719482,131,15.578613,1.164551,-0.109863,550,365,700,0.923828,1,-4,28960,29168,28973,,150,321,2,12,1,3882,54829080
-319,624,8,-0.172584,-0.280813,-0.180975,-1.990725,7.0866,0.732522,127,-3.911133,-2.279663,113.713989,131,12.810059,0.703125,0.043945,550,365,700,0.923828,1,-4,28958,29160,28970,,150,321,2,12,1,3883,54829168
-319,624,11,-0.172584,-0.280811,-0.1524,-1.92405,7.572375,0.781087,127,-2.779541,-2.235718,113.724976,131,10.458984,0.131836,0.175781,550,365,701,0.923828,1,-4,28945,29152,28958,,151,321,2,12,1,3883,54829276
-319,624,12,-0.172585,-0.280809,-0.4191,-1.933575,7.5819,0.781212,128,-1.845703,-2.246704,113.741455,131,8.613281,-0.219727,0.219727,551,365,701,0.923828,2,-4,28940,29144,28953,,151,321,2,12,1,3883,54829368
-319,625,15,-0.172586,-0.280807,-0.447675,-1.7907,7.62,0.784256,128,-1.065674,-2.279663,113.768921,131,7.338867,-0.373535,0.241699,551,366,702,0.925781,2,-4,28928,29140,28940,,152,321,2,12,1,3884,54829476
-320,625,16,-0.172587,-0.280805,-0.371475,-1.4478,7.762875,0.797171,128,-0.401001,-2.312622,113.796387,131,6.306152,-0.263672,0.241699,551,366,702,0.925781,2,-4,28925,29132,28938,,152,321,2,12,1,3884,54829572
-320,625,19,-0.172588,-0.280803,-0.314325,-1.133475,7.8867,0.808307,128,0.175781,-2.323608,113.818359,131,5.515137,0.087891,0.241699,552,367,702,0.927734,2,-4,28918,29124,28930,,152,321,2,12,1,3884,54829676
-320,626,20,-0.172589,-0.280801,-0.333375,-0.9525,8.048625,0.82402,128,0.675659,-2.296143,113.840332,131,4.614258,0.32959,0.219727,552,367,702,0.927734,2,-4,28915,29116,28928,,153,322,2,12,1,3885,54829768
-320,626,23,-0.172589,-0.2808,-0.295275,-0.85725,8.391525,0.858327,128,1.109619,-2.246704,113.862305,131,4.174805,0.65918,0.219727,552,367,703,0.927734,2,-4,28903,29112,28915,,153,322,2,12,1,3885,54829876
-320,626,24,-0.17259,-0.280798,-0.40005,-0.7239,8.867775,0.906673,128,1.477661,-2.1698,113.884277,131,3.493652,0.878906,0.219727,552,367,703,0.927734,2,-3,28898,29104,28910,,153,322,2,12,1,3885,54829968
-320,626,27,-0.172591,-0.280796,-0.295275,-0.5334,9.210675,0.940564,128,1.774292,-2.076416,113.90625,131,2.526855,0.944824,0.197754,553,367,703,0.927734,2,-3,28890,29096,28903,,153,322,2,12,1,3877,54830080
-320,626,28,-0.172592,-0.280794,-0.104775,-0.2667,9.667875,0.985658,128,1.933594,-1.988525,113.928223,131,0.878906,0.900879,0.197754,553,368,703,0.927734,2,-3,28888,29088,28900,,153,322,2,12,1,3869,54830168
-320,626,31,-0.172593,-0.280792,-0.05715,-0.123825,9.763125,0.994949,128,1.873169,-1.895142,113.944702,131,-1.713867,0.900879,0.109863,553,368,703,0.927734,2,-3,28875,29080,28890,,154,322,2,12,1,3860,54830276
-320,626,31,-0.172593,-0.28079,-0.028575,0.047625,10.201275,1.039376,128,1.5271,-1.807251,113.950195,131,-4.614258,0.769043,0.021973,553,368,703,0.927734,2,-3,28873,29072,28888,,154,322,2,12,1,3852,54830368
-320,626,33,-0.172594,-0.280788,0.01905,0.028575,10.57275,1.077375,128,0.900879,-1.741333,113.950195,131,-7.207031,0.615234,-0.087891,553,368,703,0.927734,2,-3,28863,29068,28875,,154,322,2,12,1,3842,54830476
-320,626,34,-0.172595,-0.280786,0.1143,-0.104775,10.7061,1.091381,128,0.049438,-1.680908,113.939209,131,-9.360352,0.593262,-0.065918,553,368,703,0.927734,2,-2,28860,29060,28873,,154,322,2,12,1,3833,54830572
-320,626,35,-0.172596,-0.280785,0.2667,-0.123825,11.039475,1.125627,128,-0.994263,-1.61499,113.928223,131,-11.052246,0.812988,-0.109863,553,368,703,0.929688,2,-2,28855,29052,28868,,154,322,2,12,1,3824,54830676
-320,626,36,-0.172597,-0.280783,0.381,-0.314325,11.268075,1.149987,128,-2.136841,-1.51062,113.911743,131,-11.799316,1.164551,-0.175781,553,368,703,0.929688,2,-2,28850,29044,28863,,154,322,2,12,1,3814,54830768
-320,626,37,-0.172598,-0.280781,0.5715,-0.4191,11.820525,1.207442,128,-3.345337,-1.378784,113.884277,131,-12.370605,1.340332,-0.241699,554,368,703,0.929688,3,-2,28838,29036,28850,,154,322,2,12,1,3804,54830876
-319,626,37,-0.172598,-0.280779,0.809625,-0.762,12.24915,1.254143,128,-4.592285,-1.246948,113.845825,131,-12.678223,1.362305,-0.285645,554,368,703,0.929688,3,-2,28835,29032,28848,,154,322,2,12,1,3795,54830968
-319,627,38,-0.172599,-0.280777,0.9906,-0.847725,12.439651,1.275372,128,-5.877686,-1.120605,113.807373,131,-12.766113,1.252441,-0.307617,554,369,703,0.929688,3,-2,28823,29024,28835,,154,322,2,12,1,3785,54831076
-319,627,38,-0.1726,-0.280775,1.27635,-0.981075,12.85875,1.321365,128,-7.163086,-1.005249,113.757935,131,-12.766113,1.098633,-0.395508,554,369,703,0.929688,3,-2,28820,29016,28833,,154,322,2,12,1,3775,54831168
-319,627,39,-0.172601,-0.280773,1.552575,-1.12395,13.049251,1.344782,127,-8.442993,-0.917358,113.703003,131,-12.678223,0.922852,-0.483398,554,369,703,0.929688,3,-1,28808,29008,28823,,154,322,2,12,1,3765,54831276
-318,627,39,-0.172602,-0.280771,1.876425,-0.9906,13.154025,1.358604,127,-9.695435,-0.834961,113.637085,131,-12.084961,0.856934,-0.549316,554,369,703,0.931641,3,-1,28808,29004,28820,,154,322,2,12,1,3756,54831368
-318,627,39,-0.172603,-0.28077,2.0574,-1.143,13.173075,1.364419,127,-10.870972,-0.76355,113.560181,131,-11.557617,0.834961,-0.65918,555,369,703,0.931641,3,-1,28793,28996,28808,,154,322,2,12,1,3745,54831476
-318,628,39,-0.172603,-0.280768,2.30505,-1.247775,13.134975,1.365683,127,-11.969604,-0.697632,113.47229,131,-10.744629,0.834961,-0.769043,555,369,703,0.931641,3,-1,28790,28992,28805,,154,321,2,12,1,3735,54831572
-317,628,39,-0.172604,-0.280766,2.5527,-1.381125,13.2207,1.380117,127,-12.996826,-0.631714,113.373413,131,-10.019531,0.812988,-0.834961,555,369,703,0.931641,3,-1,28785,28984,28798,,154,321,2,12,1,3725,54831676
-317,628,39,-0.172605,-0.280764,2.7432,-1.4097,13.01115,1.363432,127,-13.952637,-0.571289,113.26355,131,-9.536133,0.878906,-0.944824,555,369,703,0.931641,3,-1,28785,28976,28798,,154,321,2,12,1,3716,54831768
-316,628,40,-0.172606,-0.280762,2.981325,-1.524,13.096875,1.378371,127,-14.831543,-0.505371,113.1427,131,-8.591309,0.944824,-1.032715,555,369,703,0.931641,3,-1,28775,28972,28788,,154,321,2,12,1,3705,54831876
-315,629,40,-0.172607,-0.28076,3.209925,-1.609725,13.115925,1.386599,127,-15.666504,-0.43396,113.016357,130,-8.173828,1.010742,-1.120605,555,369,703,0.931641,3,-1,28770,28964,28783,,154,321,2,12,1,3695,54831968
-315,629,40,-0.172607,-0.280758,3.429,-1.590675,13.173075,1.397442,127,-16.452026,-0.362549,112.873535,130,-7.910156,0.98877,-1.164551,555,370,703,0.931641,3,-1,28763,28960,28775,,154,321,2,12,1,3686,54832080
-314,629,40,-0.172608,-0.280756,3.571875,-1.65735,13.134975,1.398208,127,-17.232056,-0.296631,112.730713,130,-7.624512,1.07666,-1.230469,554,369,703,0.929688,3,-1,28758,28952,28773,,153,321,2,12,1,3676,54832168
-313,630,39,-0.172609,-0.280755,3.895725,-1.7526,13.31595,1.425995,126,-17.96814,-0.230713,112.571411,130,-7.492676,1.142578,-1.274414,554,369,703,0.929688,3,-1,28750,28948,28763,,153,321,2,12,1,3667,54832276
-313,630,39,-0.17261,-0.280753,4.048125,-1.800225,13.211175,1.420881,126,-18.676758,-0.164795,112.412109,130,-6.987305,1.208496,-1.318359,554,369,703,0.929688,3,-1,28748,28944,28760,,153,321,2,12,1,3658,54832368
-312,630,39,-0.172611,-0.280751,4.24815,-1.800225,13.4493,1.449865,126,-19.346924,-0.087891,112.247314,130,-6.459961,1.252441,-1.296387,555,369,703,0.929688,3,-1,28735,28936,28748,,153,321,2,12,1,3649,54832476
-311,631,39,-0.172611,-0.280749,4.486275,-1.88595,13.477875,1.461204,126,-19.956665,-0.016479,112.08252,130,-5.844727,1.274414,-1.296387,555,369,703,0.929688,3,-1,28735,28932,28748,,153,321,2,12,1,3640,54832572
-310,631,39,-0.172612,-0.280747,4.714875,-1.9431,13.65885,1.48672,126,-20.522461,0.060425,111.917725,130,-5.493164,1.230469,-1.318359,555,370,703,0.929688,3,-1,28725,28928,28738,,153,321,2,12,1,3632,54832676
-309,631,39,-0.172613,-0.280745,4.962525,-2.066925,13.81125,1.511241,126,-21.022339,0.131836,111.75293,130,-4.96582,1.164551,-1.274414,555,369,703,0.929688,3,-1,28725,28920,28738,,153,321,2,12,1,3624,54832768
-308,632,39,-0.172614,-0.280743,5.0292,-2.0955,13.611225,1.494956,125,-21.516724,0.197754,111.593628,130,-4.768066,1.164551,-1.230469,555,369,703,0.929688,3,-1,28715,28916,28730,,153,321,2,12,1,3616,54832876
-307,632,39,-0.172615,-0.280741,5.191125,-2.181225,13.6398,1.504585,125,-21.967163,0.263672,111.434326,130,-4.526367,1.164551,-1.186523,554,369,703,0.929688,3,-1,28713,28912,28728,,153,321,2,12,1,3609,54832968
-306,633,38,-0.172615,-0.280739,5.3721,-2.219325,13.62075,1.50991,125,-22.423096,0.324097,111.286011,130,-4.526367,1.164551,-1.120605,555,370,703,0.929688,3,-1,28705,28908,28718,,153,321,2,12,1,3602,54833076
-305,633,38,-0.172616,-0.280738,5.58165,-2.238375,13.554075,1.511729,125,-22.835083,0.390015,111.143188,130,-4.438477,1.032715,-1.054688,555,370,703,0.929688,3,-1,28703,28904,28715,,153,321,2,12,1,3595,54833168
-304,633,38,-0.172617,-0.280736,5.629275,-2.19075,13.62075,1.519249,125,-23.252563,0.455933,111.011353,129,-3.911133,1.120605,-0.966797,555,370,703,0.929688,3,-1,28695,28896,28708,,153,321,2,12,1,3589,54833276
-303,634,38,-0.172618,-0.280734,5.715,-2.238375,13.54455,1.51614,125,-23.604126,0.521851,110.874023,129,-3.47168,1.208496,-0.98877,555,370,703,0.929688,3,-1,28693,28892,28705,,153,321,2,12,1,3583,54833372
-302,634,38,-0.172619,-0.280732,5.7912,-2.1717,13.573125,1.520902,125,-23.944702,0.593262,110.731201,129,-2.988281,1.186523,-0.98877,554,369,702,0.929688,3,-1,28685,28888,28698,,153,321,2,12,1,3577,54833476
-300,635,37,-0.172619,-0.28073,5.934075,-2.2479,13.649325,1.534724,124,-24.23584,0.65918,110.593872,129,-2.922363,1.098633,-0.944824,555,370,702,0.929688,3,-1,28683,28884,28695,,153,321,2,12,1,3572,54833572
-299,635,37,-0.17262,-0.280728,5.876925,-2.238375,13.496925,1.518216,124,-24.537964,0.719604,110.462036,129,-2.988281,0.98877,-0.922852,555,370,702,0.929688,3,-1,28675,28880,28690,,153,321,2,12,1,3566,54833676
-298,636,37,-0.172621,-0.280726,5.915025,-2.2479,13.477875,1.518134,124,-24.823608,0.774536,110.341187,129,-3.032227,0.944824,-0.878906,555,370,702,0.929688,3,-1,28675,28876,28690,,153,321,2,12,1,3561,54833768
-297,636,36,-0.172622,-0.280724,6.048375,-2.276475,13.382626,1.515199,124,-25.136719,0.829468,110.220337,129,-3.273926,1.010742,-0.878906,555,370,702,0.929688,3,-1,28670,28872,28685,,153,321,2,12,1,3556,54833876
-296,636,36,-0.172622,-0.280722,6.00075,-2.2479,13.3731,1.511975,124,-25.438843,0.878906,110.099487,129,-2.878418,0.966797,-0.900879,555,370,702,0.929688,3,-1,28670,28868,28683,,153,321,2,12,1,3551,54833968
-295,637,36,-0.172623,-0.280721,6.029325,-2.219325,13.020675,1.480374,124,-25.751953,0.933838,109.973145,129,-3.098145,1.054688,-0.900879,555,370,702,0.929688,3,-1,28663,28868,28675,,153,321,2,12,1,3547,54834080
-293,637,35,-0.172624,-0.280719,6.19125,-2.2098,13.173075,1.501111,124,-26.087036,0.98877,109.841309,129,-3.273926,1.098633,-0.922852,554,369,702,0.929688,3,-1,28660,28864,28673,,153,321,2,12,1,3542,54834168
-292,638,35,-0.172625,-0.280717,6.238875,-2.2479,13.0683,1.494149,123,-26.471558,1.049194,109.709473,128,-3.999023,1.098633,-0.944824,554,369,702,0.929688,3,-1,28655,28860,28668,,153,321,2,12,1,3538,54834276
-291,638,34,-0.172625,-0.280715,6.200775,-2.238375,12.97305,1.48368,123,-26.889038,1.098633,109.577637,128,-4.306641,1.054688,-0.98877,554,369,702,0.929688,3,-1,28653,28856,28665,,153,321,2,12,1,3534,54834368
-290,639,34,-0.172626,-0.280713,6.4008,-2.314575,13.020675,1.497925,123,-27.328491,1.142578,109.434814,128,-4.614258,1.054688,-1.010742,555,370,701,0.929688,3,-1,28653,28852,28665,,153,321,2,12,1,3530,54834476
-289,639,33,-0.172627,-0.280711,6.467475,-2.371725,12.734925,1.475952,123,-27.800903,1.186523,109.297485,128,-4.87793,0.98877,-1.010742,555,370,701,0.929688,3,-1,28648,28852,28660,,153,321,2,12,1,3526,54834572
-287,640,33,-0.172628,-0.280709,6.49605,-2.3622,12.7635,1.479721,123,-28.300781,1.230469,109.160156,128,-5.119629,0.966797,-1.010742,554,370,701,0.929688,3,-1,28640,28848,28653,,153,321,2,12,1,3521,54834676
-286,640,32,-0.172628,-0.280707,6.6675,-2.390775,12.773026,1.488957,123,-28.806152,1.268921,109.017334,128,-4.987793,0.966797,-1.054688,554,369,701,0.927734,3,-1,28640,28844,28655,,153,321,2,12,1,3517,54834768
-285,640,31,-0.172629,-0.280705,6.76275,-2.286,12.66825,1.482603,123,-29.30603,1.312866,108.869019,128,-4.790039,1.054688,-1.120605,555,370,701,0.929688,3,-1,28638,28844,28653,,153,321,2,12,1,3514,54834876
-283,641,31,-0.17263,-0.280703,6.7056,-2.371725,12.506325,1.466674,123,-29.805908,1.345825,108.720703,128,-4.702148,1.142578,-1.164551,554,370,701,0.927734,3,-1,28635,28840,28650,,153,321,2,12,1,3509,54834968
-282,641,30,-0.172631,-0.280701,6.858,-2.333625,12.4968,1.472636,122,-30.272827,1.389771,108.555908,128,-4.328613,1.230469,-1.208496,554,369,701,0.927734,3,-1,28635,28836,28648,,153,321,2,12,1,3505,54835076
-281,642,30,-0.172631,-0.280699,6.962775,-2.3241,12.4206,1.470916,122,-30.723267,1.439209,108.38562,127,-4.438477,1.230469,-1.230469,554,369,701,0.927734,3,-1,28633,28836,28645,,153,321,2,12,1,3502,54835168
-279,642,29,-0.172632,-0.280698,7.21995,-2.447925,12.582525,1.499766,122,-31.14624,1.483154,108.215332,127,-4.21875,1.296387,-1.274414,554,369,700,0.927734,3,-1,28628,28832,28640,,153,321,2,12,2,3498,54835276
-278,643,29,-0.172633,-0.280696,7.153275,-2.41935,12.36345,1.476785,122,-31.558228,1.5271,108.039551,127,-3.911133,1.296387,-1.296387,554,369,700,0.927734,3,-1,28628,28832,28640,,153,321,2,12,2,3494,54835368
-277,643,28,-0.172633,-0.280694,7.210425,-2.45745,12.3063,1.475226,122,-31.92627,1.565552,107.858276,127,-3.427734,1.252441,-1.340332,554,369,700,0.927734,3,-1,28623,28828,28635,,153,321,2,12,2,3490,54835476
-275,644,27,-0.172634,-0.280692,7.3533,-2.447925,12.334875,1.484905,121,-32.266846,1.604004,107.677002,127,-3.427734,1.274414,-1.340332,554,370,700,0.927734,3,-1,28623,28824,28635,,153,321,2,12,2,3487,54835572
-274,644,26,-0.172635,-0.28069,7.4676,-2.41935,12.3444,1.491241,121,-32.590942,1.636963,107.495728,127,-3.076172,1.252441,-1.362305,554,370,700,0.927734,3,-1,28620,28824,28633,,153,321,2,12,2,3484,54835676
-272,645,26,-0.172636,-0.280688,7.534275,-2.41935,12.24915,1.486533,121,-32.904053,1.669922,107.30896,127,-3.14209,1.296387,-1.362305,554,370,700,0.927734,3,-1,28620,28824,28633,,153,321,2,12,2,3481,54835768
-271,645,25,-0.172636,-0.280686,7.62,-2.409825,12.134851,1.481165,121,-33.200684,1.702881,107.127686,127,-2.966309,1.252441,-1.362305,555,370,700,0.927734,3,-1,28618,28820,28630,,153,321,2,12,2,3478,54835876
-269,646,25,-0.172637,-0.280684,7.686675,-2.447925,12.21105,1.491729,121,-33.480835,1.741333,106.940918,127,-2.746582,1.318359,-1.362305,555,370,700,0.927734,3,-1,28615,28820,28628,,153,321,2,12,2,3475,54835968
-268,646,23,-0.172638,-0.280682,7.94385,-2.466975,12.32535,1.515691,121,-33.760986,1.774292,106.75415,126,-2.878418,1.252441,-1.384277,554,369,699,0.927734,3,-1,28613,28816,28625,,153,321,2,12,2,3472,54836080
-266,646,23,-0.172638,-0.28068,7.8486,-2.34315,12.05865,1.486071,120,-34.041138,1.807251,106.572876,126,-3.032227,1.230469,-1.340332,554,370,699,0.927734,3,-1,28613,28816,28625,,153,321,2,12,2,3469,54836168
-265,647,22,-0.172639,-0.280678,7.915275,-2.34315,12.1539,1.497735,120,-34.326782,1.834717,106.391602,126,-2.48291,1.252441,-1.340332,554,369,699,0.927734,3,-1,28610,28812,28623,,153,321,2,12,2,3466,54836276
-263,647,22,-0.17264,-0.280676,8.124825,-2.34315,12.144375,1.508617,120,-34.61792,1.862183,106.210327,126,-2.8125,1.208496,-1.340332,554,369,699,0.927734,3,-1,28608,28812,28623,,153,321,2,12,2,3463,54836368
-261,648,21,-0.17264,-0.280674,8.13435,-2.295525,12.144375,1.508436,120,-34.914551,1.889648,106.029053,126,-2.768555,1.230469,-1.340332,554,369,699,0.927734,3,-1,28605,28812,28620,,153,321,2,12,2,3460,54836476
-260,648,20,-0.172641,-0.280672,8.048625,-2.276475,11.83005,1.476991,120,-35.183716,1.917114,105.842285,126,-2.526855,1.274414,-1.340332,554,369,698,0.927734,3,-1,28603,28808,28618,,153,321,2,12,2,3457,54836572
-258,649,19,-0.172642,-0.280671,8.28675,-2.238375,11.934825,1.498804,119,-35.452881,1.950073,105.655518,126,-2.592773,1.340332,-1.362305,554,369,698,0.927734,3,-1,28603,28808,28618,,153,321,2,12,2,3454,54836676
-257,649,19,-0.172642,-0.280669,8.3439,-2.276475,11.83005,1.4939,119,-35.683594,1.988525,105.457764,125,-2.39502,1.450195,-1.362305,554,369,698,0.927734,3,-1,28603,28808,28618,,153,321,2,12,2,3452,54836768
-255,650,18,-0.172643,-0.280667,8.3439,-2.257425,11.94435,1.503025,119,-35.90332,2.032471,105.26001,125,-1.999512,1.428223,-1.362305,553,369,698,0.925781,3,-1,28600,28808,28613,,153,321,2,12,2,3450,54836876
-253,650,18,-0.172644,-0.280665,8.43915,-2.30505,11.934825,1.508356,119,-36.106567,2.06543,105.067749,125,-2.021484,1.472168,-1.362305,554,369,698,0.925781,3,-1,28600,28804,28613,,153,321,2,12,2,3448,54836968
-252,650,17,-0.172644,-0.280663,8.562975,-2.2479,11.94435,1.515607,119,-36.331787,2.103882,104.869995,125,-2.373047,1.384277,-1.384277,554,369,698,0.925781,3,-1,28600,28804,28613,,153,321,2,12,2,3446,54837076
-250,651,17,-0.172645,-0.280661,8.772525,-2.2098,11.79195,1.515002,118,-36.518555,2.136841,104.672241,125,-1.472168,1.318359,-1.362305,553,369,697,0.925781,3,-1,28598,28804,28610,,153,321,2,12,2,3443,54837168
-248,651,16,-0.172646,-0.280659,8.620125,-2.200275,11.915775,1.515895,118,-36.749268,2.164307,104.485474,125,-2.197266,1.296387,-1.384277,554,369,697,0.925781,3,-1,28598,28804,28610,,153,321,2,12,2,3442,54837276
-247,652,16,-0.172646,-0.280657,8.7249,-2.124075,11.858625,1.51649,118,-36.952515,2.186279,104.298706,125,-1.867676,1.252441,-1.362305,553,369,697,0.925781,3,-1,28598,28800,28610,,153,321,2,12,2,3440,54837368
-245,652,15,-0.172647,-0.280655,8.70585,-2.1336,11.67765,1.500696,118,-37.177734,2.208252,104.111938,124,-2.373047,1.340332,-1.384277,553,368,697,0.925781,3,-1,28593,28800,28605,,153,321,2,12,2,3439,54837476
-243,652,15,-0.172648,-0.280653,8.8773,-2.143125,11.7348,1.5158,118,-37.408447,2.230225,103.914185,124,-2.197266,1.362305,-1.384277,553,368,697,0.925781,3,-1,28595,28800,28608,,153,321,2,12,2,3437,54837572
-242,653,14,-0.172648,-0.280651,8.829675,-2.11455,11.52525,1.495587,118,-37.65564,2.25769,103.721924,124,-2.790527,1.384277,-1.384277,553,368,696,0.925781,3,-1,28593,28800,28605,,153,321,2,12,2,3436,54837676
-240,653,14,-0.172649,-0.280649,8.915401,-2.047875,11.48715,1.496972,117,-37.924805,2.285156,103.52417,124,-2.416992,1.384277,-1.362305,553,368,696,0.923828,3,-1,28593,28800,28608,,153,321,2,12,2,3435,54837768
-238,654,13,-0.172649,-0.280647,8.9916,-2.085975,11.496675,1.502891,117,-38.204956,2.307129,103.331909,124,-3.076172,1.384277,-1.362305,553,368,696,0.923828,3,-1,28593,28796,28608,,153,321,2,12,2,3433,54837876
-236,654,13,-0.17265,-0.280645,8.85825,-2.0955,11.363325,1.483996,117,-38.50708,2.334595,103.145142,124,-2.746582,1.340332,-1.340332,553,368,696,0.923828,3,-1,28593,28796,28608,,153,321,2,12,2,3432,54837968
-235,654,12,-0.172651,-0.280643,9.001125,-2.03835,11.3919,1.494502,117,-38.787231,2.351074,102.958374,124,-2.834473,1.384277,-1.340332,553,368,695,0.923828,3,-1,28593,28796,28605,,153,321,2,12,2,3431,54838080
-233,655,12,-0.172651,-0.280641,8.93445,-1.990725,11.2776,1.480613,117,-39.083862,2.367554,102.766113,123,-2.834473,1.340332,-1.384277,553,368,695,0.923828,3,-1,28590,28796,28605,,153,321,2,12,2,3430,54838168
-231,655,11,-0.172652,-0.280639,9.153525,-1.952625,11.25855,1.492546,116,-39.364014,2.37854,102.573853,123,-2.658691,1.318359,-1.450195,552,368,695,0.923828,3,-1,28593,28796,28605,,153,321,2,12,2,3429,54838276
-229,656,11,-0.172652,-0.280638,9.20115,-1.9431,11.37285,1.504416,116,-39.633179,2.384033,102.381592,123,-2.373047,1.274414,-1.450195,552,368,695,0.923828,3,-1,28593,28796,28605,,153,321,2,12,2,3428,54838368
-228,656,10,-0.172653,-0.280636,9.229725,-2.00025,11.29665,1.500828,116,-39.885864,2.39502,102.189331,123,-2.329102,1.296387,-1.428223,552,367,694,0.923828,3,-1,28593,28796,28605,,153,321,2,12,2,3427,54838476
-226,656,10,-0.172654,-0.280634,9.077325,-1.88595,10.99185,1.465839,116,-40.078125,2.406006,101.991577,123,-1.604004,1.318359,-1.428223,552,368,694,0.923828,3,-1,28593,28796,28605,,153,321,2,12,2,3426,54838572
-224,657,9,-0.172654,-0.280632,9.12495,-1.857375,11.0871,1.475952,116,-40.182495,2.422485,101.793823,123,-0.571289,1.362305,-1.428223,552,367,694,0.921875,3,-1,28593,28796,28605,,153,321,2,12,2,3425,54838676
-222,657,9,-0.172655,-0.28063,9.16305,-1.857375,11.039475,1.474632,115,-40.209961,2.433472,101.590576,123,0.197754,1.362305,-1.428223,552,367,694,0.923828,3,-1,28590,28796,28603,,153,321,2,12,2,3425,54838768
-220,657,8,-0.172655,-0.280628,9.1821,-1.800225,11.0109,1.472959,115,-40.13855,2.455444,101.392822,122,1.098633,1.384277,-1.40625,552,367,693,0.921875,3,-1,28590,28796,28603,,153,321,2,12,2,3424,54838876
-219,658,8,-0.172656,-0.280626,9.191625,-1.84785,11.077575,1.479132,115,-40.006714,2.471924,101.195068,122,1.757813,1.428223,-1.362305,552,367,693,0.921875,3,-1,28590,28796,28603,,153,321,2,12,2,3423,54838968
-217,658,7,-0.172656,-0.280624,9.16305,-1.7907,11.058525,1.4751,115,-39.825439,2.493896,101.002808,122,1.933594,1.384277,-1.318359,552,367,693,0.921875,3,-1,28590,28796,28603,,153,321,2,12,2,3423,54839076
